City_ID,City,Lat,Lng,Max Temp,Humidity,Cloudiness,Wind Speed,Country,Date
0,waitangi,-43.9535,-176.5597,8.79,93,95,3.58,NZ,1689905669
1,newman,37.3138,-121.0208,37.19,10,0,3.56,US,1689905669
2,port-aux-francais,-49.35,70.2167,1.71,54,96,14.29,TF,1689905670
3,yellowknife,62.456,-114.3525,26.98,44,100,4.63,CA,1689905428
4,olinda,-8.0089,-34.8553,25.85,73,75,6.69,BR,1689905525
5,east london,-33.0153,27.9116,12.48,57,100,6.73,ZA,1689905671
6,ushuaia,-54.8,-68.3,-0.19,74,75,4.12,AR,1689905479
7,labrador city,52.9463,-66.9114,10.95,100,20,1.03,CA,1689905672
8,albany,42.6001,-73.9662,22.55,74,56,1.43,US,1689905672
9,juneau,58.3019,-134.4197,22.0,49,75,3.09,US,1689905656
10,thompson,55.7435,-97.8558,23.09,49,40,0.0,CA,1689905673
11,avarua,-21.2078,-159.775,23.03,56,75,7.2,CK,1689905673
12,sheridan,44.8333,-106.9173,22.23,59,0,1.54,US,1689905674
13,libourne,44.9167,-0.25,17.28,95,18,2.2,FR,1689905674
14,holmsund,63.706,20.3641,12.75,93,100,1.03,SE,1689905675
15,ust-nera,64.5667,143.2,29.42,31,40,3.58,RU,1689905675
16,invercargill,-46.4,168.35,8.06,64,5,3.53,NZ,1689905675
17,sisimiut,66.9395,-53.6735,7.56,99,96,1.02,GL,1689905676
18,praia da vitoria,38.7333,-27.0667,21.53,94,20,2.94,PT,1689905676
19,hawaiian paradise park,19.5933,-154.9731,28.74,74,75,1.54,US,1689905537
20,wailua homesteads,22.0669,-159.378,30.24,69,40,8.75,US,1689905677
21,grytviken,-54.2811,-36.5092,-1.43,90,97,1.45,GS,1689905677
22,mo i rana,66.3128,14.1428,12.4,88,100,1.54,NO,1689905677
23,margaret river,-33.95,115.0667,15.08,75,71,8.98,AU,1689905678
24,villa gesell,-37.2639,-56.973,11.14,93,57,5.34,AR,1689905678
25,brookings,44.3114,-96.7984,21.73,70,20,2.57,US,1689905678
26,edinburgh of the seven seas,-37.0676,-12.3116,11.64,63,100,10.54,SH,1689905679
27,chui,-33.6971,-53.4616,14.13,94,99,3.86,UY,1689905679
28,altagracia de orituco,9.8601,-66.3814,22.49,94,100,0.82,VE,1689905680
29,fastiv,50.0767,29.9177,12.31,98,17,3.3,UA,1689905680
30,quellon,-43.1167,-73.6167,10.14,93,75,4.12,CL,1689905680
31,susuman,62.7833,148.1667,27.53,40,17,3.96,RU,1689905681
32,geyve,40.5075,30.2925,15.86,56,8,0.48,TR,1689905681
33,port alfred,-33.5906,26.891,12.71,57,83,10.14,ZA,1689905681
34,paradip garh,20.3167,86.6167,29.16,81,100,3.46,IN,1689905682
35,fort bragg,35.139,-79.006,27.75,80,99,3.52,US,1689905682
36,college,64.8569,-147.8028,23.37,71,40,2.57,US,1689905683
37,ilulissat,69.2167,-51.1,8.01,93,75,0.0,GL,1689905683
38,adamstown,-25.066,-130.1015,20.76,86,100,10.69,PN,1689905683
39,midvagur,62.0511,-7.1939,9.46,93,75,7.72,FO,1689905684
40,papao,-17.75,-149.55,25.82,66,31,8.67,PF,1689905684
41,kodiak,57.79,-152.4072,12.73,94,0,2.57,US,1689905684
42,valparaiso,-33.0393,-71.6273,15.0,65,75,3.09,CL,1689905547
43,vorkuta,67.5,64.0,20.07,81,100,4.04,RU,1689905685
44,blackmans bay,-43.0167,147.3167,11.07,62,0,2.59,AU,1689905685
45,zhanaozen,43.3,52.8,25.11,41,0,3.92,KZ,1689905686
46,bethel,41.3712,-73.414,24.2,78,0,1.54,US,1689905686
47,ain sukhna,29.6002,32.3167,27.51,46,0,1.76,EG,1689905686
48,whitehorse,60.7161,-135.0538,25.05,35,75,2.06,CA,1689905687
49,udachny,66.4167,112.4,18.54,51,54,1.44,RU,1689905687
50,al jawf,29.5,38.75,26.1,25,0,6.02,SA,1689905687
51,castillos,-34.1667,-53.8333,12.93,94,36,4.02,UY,1689905688
52,trinidad,-14.8333,-64.9,21.7,62,0,1.01,BO,1689905688
53,utrik,11.2278,169.8474,28.4,79,21,9.08,MH,1689905689
54,tamanrasset,22.785,5.5228,23.95,16,0,3.09,DZ,1689905689
55,saipan,15.1355,145.701,31.39,100,20,5.66,MP,1689905689
56,st. john's,47.5649,-52.7093,21.66,92,100,7.2,CA,1689905683
57,labytnangi,66.6572,66.4183,20.24,80,4,1.4,RU,1689905690
58,kismayo,-0.3582,42.5454,25.02,85,45,8.13,SO,1689905690
59,ad dabbah,18.05,30.95,34.23,16,57,3.21,SD,1689905691
60,puerto natales,-51.7236,-72.4875,-0.76,98,100,1.2,CL,1689905691
61,baruun-urt,46.6806,113.2792,17.94,79,100,7.63,MN,1689905691
62,same,-4.0667,37.7333,16.88,92,63,2.33,TZ,1689905692
63,constantia,44.1833,28.65,20.39,80,27,3.68,RO,1689905692
64,tiksi,71.6872,128.8694,6.15,69,99,3.6,RU,1689905692
65,iqaluit,63.7506,-68.5145,4.85,93,100,1.54,CA,1689905693
66,badger,64.8,-147.5333,23.32,67,0,2.57,US,1689905693
67,nema,57.5067,50.5011,12.65,93,36,4.55,RU,1689905694
68,ponoka,52.6768,-113.5815,21.83,74,10,1.19,CA,1689905694
69,kristiansund,63.1115,7.732,12.36,82,100,1.54,NO,1689905694
70,vorgashor,67.5833,63.95,19.85,80,100,3.67,RU,1689905695
71,kallar kahar,32.7833,72.7,29.64,66,12,1.14,PK,1689905695
72,mont-dore,-22.2833,166.5833,23.99,99,0,4.96,NC,1689905695
73,mitu,1.1983,-70.1733,22.23,99,96,1.15,CO,1689905696
74,keflavik,64.0049,-22.5624,11.95,93,100,2.06,IS,1689905696
75,al qusayr,34.5091,36.5798,22.07,54,0,1.55,SY,1689905696
76,papatowai,-46.5619,169.4708,8.23,62,0,9.36,NZ,1689905697
77,namibe,-15.1961,12.1522,16.88,84,1,1.02,AO,1689905697
78,aykhal,66.0,111.5,17.03,73,96,1.01,RU,1689905697
79,aasiaat,68.7098,-52.8699,3.52,97,83,5.05,GL,1689905698
80,istgah-e rah ahan-e garmsar,35.2346,52.3094,31.36,29,71,3.52,IR,1689905698
81,steamboat springs,40.485,-106.8317,22.77,56,75,2.57,US,1689905699
82,longyearbyen,78.2186,15.6401,8.91,76,40,6.69,SJ,1689905696
83,chinde,26.8418,88.0763,23.18,76,99,1.67,NP,1689905700
84,madimba,-10.4,40.3333,22.42,88,20,5.2,TZ,1689905700
85,greenville,35.6127,-77.3663,27.85,92,75,0.0,US,1689905700
86,chibougamau,49.9168,-74.3659,16.79,82,100,1.54,CA,1689905701
87,puerto gaitan,4.3133,-72.0816,25.95,75,98,2.11,CO,1689905701
88,stanley,54.868,-1.6985,10.43,90,0,4.63,GB,1689905702
89,vadso,70.0744,29.7487,9.49,87,100,7.2,NO,1689905702
90,malabo,3.75,8.7833,24.92,94,20,2.06,GQ,1689905703
91,santa cruz,-17.8,-63.1667,20.7,83,0,4.12,BO,1689905670
92,itaituba,-4.2761,-55.9836,24.99,54,53,0.61,BR,1689905656
93,takanabe,32.1333,131.5,27.94,92,100,0.31,JP,1689905704
94,dolores,-36.3132,-57.6792,9.21,95,98,3.61,AR,1689905705
95,tazovsky,67.4667,78.7,20.68,57,46,4.78,RU,1689905706
96,colac,-38.3333,143.5833,8.98,71,55,3.11,AU,1689905706
97,ivanovskoye,44.5795,41.8764,16.54,73,0,2.84,RU,1689905707
98,sinabang,2.4803,96.3801,27.58,75,99,2.51,ID,1689905707
99,nogliki,51.8333,143.1667,17.86,82,77,1.9,RU,1689905707
100,rongelap,11.1635,166.8941,28.75,79,99,8.34,MH,1689905708
101,afaahiti,-17.75,-149.2833,24.93,66,34,8.98,PF,1689905708
102,cabedelo,-6.9811,-34.8339,23.37,77,14,6.74,BR,1689905478
103,lata,40.1629,-8.3327,16.15,98,38,0.88,PT,1689905709
104,chauk,20.8833,94.8167,28.07,77,99,6.29,MM,1689905710
105,bredasdorp,-34.5322,20.0403,6.13,86,0,2.17,ZA,1689905710
106,jinchang,38.4953,102.1739,22.44,31,0,3.45,CN,1689905710
107,tacuarembo,-31.7333,-55.9833,13.58,97,65,3.61,UY,1689905711
108,klyuchi,52.2667,79.1667,25.8,43,31,4.21,RU,1689905711
109,tsiombe,-25.3,45.4833,19.07,74,97,6.31,MG,1689905712
110,zmeinogorsk,51.1567,82.195,22.47,62,8,3.95,RU,1689905712
111,cabo san lucas,22.8909,-109.9124,35.9,51,0,9.26,MX,1689905429
112,ghat,24.9647,10.1728,28.56,24,0,0.72,LY,1689905713
113,cidreira,-30.1811,-50.2056,16.75,91,100,6.05,BR,1689905713
114,corn island,12.1694,-83.0418,28.38,82,97,7.9,NI,1689905714
115,port elizabeth,-33.918,25.5701,13.16,58,0,8.23,ZA,1689905714
116,jamestown,42.097,-79.2353,16.68,98,75,3.6,US,1689905437
117,la'ie,21.6477,-157.9253,30.98,68,6,4.02,US,1689905715
118,nizhnesortymskiy,62.4397,71.7603,20.95,59,99,4.34,RU,1689905715
119,mossel bay,-34.1831,22.146,5.96,64,0,3.16,ZA,1689905716
120,tekirova,36.5017,30.5272,29.31,36,0,1.87,TR,1689905716
121,okhotsk,59.3833,143.3,16.67,77,48,5.26,RU,1689905716
122,calca,-13.3333,-71.95,8.64,84,18,2.11,PE,1689905717
123,kudahuvadhoo,2.6708,72.8944,28.29,75,53,4.53,MV,1689905717
124,hermanus,-34.4187,19.2345,7.67,75,0,4.47,ZA,1689905718
125,manokwari,-0.8667,134.0833,28.71,71,24,3.69,ID,1689905718
126,geraldton,-28.7667,114.6,13.23,82,100,3.6,AU,1689905718
127,puerto el triunfo,13.2833,-88.55,27.98,75,54,1.53,SV,1689905719
128,dunedin,-45.8742,170.5036,9.89,52,3,5.81,NZ,1689905719
129,nova vicosa,-17.8919,-39.3719,22.24,85,98,7.2,BR,1689905720
130,beau vallon,-20.4189,57.6953,20.12,94,20,2.06,MU,1689905720
131,whangarei,-35.7317,174.3239,13.48,88,100,2.75,NZ,1689905721
132,yuzhno-kurilsk,44.0306,145.8556,17.13,84,49,3.94,RU,1689905721
133,khanty-mansiysk,61.0042,69.0019,19.06,82,0,1.0,RU,1689905722
134,rundu,-17.9333,19.7667,14.72,37,91,2.33,NA,1689905722
135,yarmouth,41.7057,-70.2286,22.79,88,0,1.79,US,1689905722
136,rehoboth,-23.3167,17.0833,7.08,39,0,0.97,NA,1689905723
137,rodino,52.5,80.25,23.9,52,2,4.53,RU,1689905490
138,anadyr,64.75,177.4833,14.28,94,100,2.0,RU,1689905724
139,acapulco de juarez,16.8634,-99.8901,29.9,84,75,3.6,MX,1689905724
140,messini,37.0511,22.0078,27.32,73,0,1.03,GR,1689905725
141,cooper's town,26.8667,-77.5167,29.74,75,50,4.12,BS,1689905725
142,alamos,27.0167,-108.9333,24.58,69,100,2.04,MX,1689905725
143,pointe-du-lac,46.2869,-72.6845,23.94,85,100,1.54,CA,1689905726
144,vetapalem,15.7833,80.3167,28.16,67,100,6.28,IN,1689905726
145,trondheim,63.4305,10.3951,12.73,86,100,1.93,NO,1689905727
146,mar del plata,-38.0023,-57.5575,10.61,90,0,4.12,AR,1689905675
147,palapag,12.5458,125.1147,30.66,65,93,0.91,PH,1689905727
148,isafjordur,66.0755,-23.124,10.49,73,88,0.19,IS,1689905728
149,gunupur,19.0833,83.8167,25.79,96,100,0.44,IN,1689905728
150,qaqortoq,60.7167,-46.0333,7.99,98,100,1.89,GL,1689905729
151,itoman,26.1247,127.6694,32.43,73,75,5.14,JP,1689905729
152,sandnessjoen,66.0217,12.6316,12.29,89,97,1.46,NO,1689905729
153,santa terezinha,-29.9002,-50.0904,16.41,91,100,5.35,BR,1689905730
154,nuuk,64.1835,-51.7216,7.34,100,100,6.17,GL,1689905654
155,kulhudhuffushi,6.6221,73.07,27.93,80,100,7.8,MV,1689905731
156,kerema,-7.9631,145.7785,26.73,76,78,2.66,PG,1689905731
157,vilyuchinsk,52.9306,158.4028,14.15,91,100,0.83,RU,1689905732
158,tianpeng,30.9866,103.9393,27.34,80,100,1.02,CN,1689905732
159,nadi,-17.8,177.4167,30.0,62,20,3.6,FJ,1689905732
160,howrah,22.5892,88.3103,29.0,94,75,3.6,IN,1689905522
161,georgetown,5.4112,100.3354,28.97,80,20,3.09,MY,1689905733
162,zhangzhou,24.5133,117.6556,32.96,76,98,0.49,CN,1689905650
163,kerikeri,-35.2268,173.9474,17.17,80,97,0.89,NZ,1689905734
164,alofi,-19.0595,-169.9187,24.42,77,100,11.71,NU,1689905734
165,port saint john's,-31.6229,29.5448,11.66,70,99,3.31,ZA,1689905735
166,kargasok,59.0556,80.8572,17.76,93,93,4.73,RU,1689905735
167,alice springs,-23.7,133.8833,16.75,45,0,7.2,AU,1689905735
168,san antonio de pale,-1.4014,5.6325,23.43,74,100,4.72,GQ,1689905736
169,nuku'alofa,-21.1333,-175.2,21.19,94,100,7.2,TO,1689905736
170,lerwick,60.1545,-1.1494,10.0,87,100,5.87,GB,1689905737
171,ribeira grande,38.5167,-28.7,22.1,92,100,2.24,PT,1689905737
172,hamilton,39.1834,-84.5333,27.69,80,0,4.63,US,1689905738
173,illizi,26.4833,8.4667,28.89,20,0,4.02,DZ,1689905738
174,beloretsk,53.9631,58.3981,13.36,75,100,1.69,RU,1689905738
175,palikir - national government center,6.9248,158.1611,28.47,84,100,2.06,FM,1689905739
176,san patricio,28.017,-97.5169,30.09,70,12,5.51,US,1689905198
177,torghay,49.6339,63.4981,22.01,62,42,3.77,KZ,1689905739
178,baiyin,36.5583,104.2081,24.54,30,0,4.51,CN,1689905740
179,chamical,-30.36,-66.314,12.98,57,71,3.19,AR,1689905740
180,new norfolk,-42.7826,147.0587,11.72,52,10,3.02,AU,1689905741
181,ariquemes,-9.9133,-63.0408,23.94,55,0,0.85,BR,1689905741
182,naze,28.3667,129.4833,29.51,73,100,3.71,JP,1689905741
183,shar,49.5886,81.0453,27.07,34,0,1.74,KZ,1689905742
184,salaqi,40.5414,110.5108,23.37,55,18,4.06,CN,1689905742
185,vila franca do campo,37.7167,-25.4333,21.23,80,86,0.91,PT,1689905742
186,ribeira brava,32.65,-17.0667,23.35,79,6,1.81,PT,1689905699
187,las terrenas,19.311,-69.5428,26.07,86,10,3.31,DO,1689905743
188,fuling,29.7022,107.3919,24.15,99,100,1.68,CN,1689905744
189,nsanje,-16.92,35.262,18.8,87,16,1.7,MW,1689905744
190,codrington,-38.2667,141.9667,12.15,69,38,4.54,AU,1689905744
191,arawa,-6.2132,155.5367,27.49,88,100,1.56,PG,1689905745
192,egilsstadir,65.2653,-14.3948,4.95,93,100,2.06,IS,1689905745
193,grovetown,33.4504,-82.1982,22.85,88,40,3.09,US,1689905745
194,barkot,30.8167,78.2,24.7,88,91,0.72,IN,1689905746
195,poxoreo,-15.8372,-54.3892,22.21,38,0,1.83,BR,1689905746
196,qinzhou,21.95,108.6167,29.87,79,95,4.48,CN,1689905560
197,ak-dovurak,51.1833,90.6,17.22,82,100,0.49,RU,1689905747
198,itamaraca,-7.7478,-34.8256,26.03,82,34,5.87,BR,1689905747
199,sungai penuh,-2.0833,101.3833,21.43,74,94,0.9,ID,1689905748
200,cabeza del buey,38.7223,-5.2195,17.81,54,0,2.27,ES,1689905748
201,bahia de kino,28.8333,-111.9333,37.18,56,99,14.74,MX,1689905748
202,touros,-5.1989,-35.4608,22.69,82,6,5.41,BR,1689905749
203,choibalsan,48.0667,114.5,21.91,42,100,6.31,MN,1689905749
204,soroti,1.7146,33.6111,17.33,65,56,0.4,UG,1689905749
205,fale old settlement,-9.3852,-171.2468,28.64,76,100,5.16,TK,1689905750
206,dangriga,16.9692,-88.2321,27.59,84,99,4.9,BZ,1689905750
207,monkey bay,-14.0728,34.9201,21.2,74,41,9.61,MW,1689905750
208,krasnogvardeyskoye,45.8456,41.5186,18.27,49,0,3.38,RU,1689905751
209,tadine,-21.55,167.8833,21.93,59,0,7.0,NC,1689905751
210,suva,-18.1416,178.4415,25.71,78,75,3.09,FJ,1689905752
211,santiago,-33.4569,-70.6483,15.19,68,100,3.09,CL,1689905173
212,ban ao nang,8.0458,98.8103,29.99,84,100,5.23,TH,1689905752
213,nacozari de garcia,30.3742,-109.6908,31.91,32,59,3.35,MX,1689905753
214,flying fish cove,-10.4217,105.6791,24.82,78,100,6.69,CX,1689905753
215,puerto ayora,-0.7393,-90.3518,25.31,93,48,1.79,EC,1689905754
216,sant'antioco,39.0664,8.4522,25.11,80,24,2.98,IT,1689905754
217,sardarshahr,28.4333,74.4833,35.12,48,79,2.26,IN,1689905754
218,medicine hat,50.0501,-110.6683,28.24,30,75,4.12,CA,1689905725
219,vysokaya gora,55.9128,49.3017,14.1,87,4,4.65,RU,1689905755
220,fort mcmurray,56.7268,-111.381,25.77,47,0,2.06,CA,1689905736
221,arraial do cabo,-22.9661,-42.0278,20.89,65,100,6.76,BR,1689905756
222,san jose del guaviare,2.5729,-72.6459,22.27,96,79,1.23,CO,1689905756
223,beidao,34.5686,105.8933,25.07,54,0,1.11,CN,1689905756
224,molochnoye,59.2917,39.6787,12.5,84,100,6.49,RU,1689905757
225,cockburn town,21.4612,-71.1419,27.85,83,56,7.58,TC,1689905757
226,nagqu,31.5,92.0,8.86,45,0,2.66,CN,1689905757
227,port mathurin,-19.6833,63.4167,23.23,66,12,7.05,MU,1689905758
228,san fernando de apure,7.8878,-67.4724,24.08,94,100,1.02,VE,1689905758
229,kostanay,53.1667,63.5833,16.16,82,0,2.0,KZ,1689905759
230,bandundu,-3.3167,17.3667,24.09,54,38,1.44,CD,1689905759
231,tofol,5.3248,163.0078,26.88,89,100,1.54,FM,1689905759
232,raja,8.4596,25.678,20.6,91,100,2.13,SS,1689905760
233,mount pearl,47.5166,-52.7813,21.19,92,100,7.2,CA,1689905760
234,buharkent,37.964,28.7427,27.06,35,0,2.25,TR,1689905760
235,bilibino,68.0546,166.4372,22.76,47,4,2.04,RU,1689905761
236,trinity beach,-16.7888,145.6968,28.9,60,100,2.57,AU,1689905761
237,tanout,14.9709,8.8879,30.47,48,99,5.51,NE,1689905761
238,saint-pierre,-21.3393,55.4781,21.98,73,100,3.09,RE,1689905762
239,poronaysk,49.2167,143.1167,18.94,88,55,3.37,RU,1689905762
240,bikenibeu village,1.3673,173.1241,25.98,94,100,2.57,KI,1689905762
241,gadzhiyevo,69.2551,33.3362,8.39,86,100,6.95,RU,1689905763
242,quetzaltenango,14.8333,-91.5167,15.39,88,100,3.03,GT,1689905745
243,ghogha,21.6833,72.2833,27.06,94,75,2.57,IN,1689905764
244,houghton,47.1219,-88.569,16.17,95,0,6.17,US,1689905764
245,queenstown,-31.8976,26.8753,1.49,93,100,1.2,ZA,1689905765
246,ormara,25.2088,64.6357,28.13,86,100,5.09,PK,1689905765
247,sidi ifni,29.3797,-10.173,20.43,88,29,2.24,MA,1689905766
248,balabac,7.9868,117.0645,26.57,87,100,5.84,PH,1689905766
249,razole,16.4833,81.8333,26.87,77,100,5.16,IN,1689905767
250,atafu village,-8.5421,-172.5159,28.61,76,30,5.35,TK,1689905767
251,west island,-12.1568,96.8225,25.99,73,100,8.75,CC,1689905767
252,gao,16.6362,1.637,31.47,49,91,5.1,ML,1689905768
253,fortuna,40.5982,-124.1573,18.29,83,100,5.14,US,1689905448
254,mezhdurechenskiy,59.6,65.9333,17.56,94,99,2.51,RU,1689905769
255,gettorf,54.4,9.9833,12.79,87,12,2.57,DE,1689905769
256,saudarkrokur,65.7461,-19.6394,7.86,81,13,0.77,IS,1689905769
257,iskateley,67.6803,53.1512,12.54,92,100,5.41,RU,1689905770
258,acarau,-2.8856,-40.12,25.1,78,4,7.15,BR,1689905771
259,spittal an der drau,46.8,13.5,19.14,97,96,0.78,AT,1689905771
260,chonchi,-42.6128,-73.8092,10.62,85,55,4.13,CL,1689905771
261,lihue,21.9789,-159.3672,30.58,67,40,8.75,US,1689905772
262,usinsk,65.9939,57.5281,18.82,81,100,4.0,RU,1689905772
263,laguna,38.421,-121.4238,39.27,24,0,3.09,US,1689905773
264,punta arenas,-53.15,-70.9167,-1.22,94,100,7.04,CL,1689905076
265,st. thomas,42.7736,-81.1804,17.63,94,88,2.85,CA,1689905594
266,cork,51.898,-8.4706,11.87,87,40,2.57,IE,1689905774
267,lompoc,34.6391,-120.4579,21.62,85,100,3.09,US,1689905774
268,bereznik,62.8551,42.7072,15.67,98,66,1.04,RU,1689905774
269,harper,4.375,-7.7169,24.65,88,72,5.17,LR,1689905775
270,lincoln city,44.9582,-124.0179,22.25,83,54,3.31,US,1689905775
271,kailua-kona,19.6406,-155.9956,27.98,92,100,3.6,US,1689905776
272,mirny,62.5353,113.9611,24.02,46,100,4.02,RU,1689905776
273,richards bay,-28.783,32.0377,13.79,78,100,2.83,ZA,1689905776
274,carnarvon,-24.8667,113.6333,16.02,36,12,8.77,AU,1689905777
275,cold lake,54.4502,-110.2017,20.97,68,75,1.03,CA,1689905777
276,salalah,17.0151,54.0924,25.05,100,100,3.6,OM,1689905778
277,tazacorte,28.629,-17.9293,22.54,93,75,8.75,ES,1689905778
278,eforie sud,44.0229,28.6494,20.45,84,28,3.55,RO,1689905316
279,yanam,16.7333,82.2167,25.22,88,100,4.48,IN,1689905779
280,lahij,13.1667,44.5833,28.28,66,99,1.33,YE,1689905779
281,lebu,-37.6167,-73.65,12.55,93,99,7.91,CL,1689905780
282,mers el kebir,35.7279,-0.7081,27.36,47,0,1.54,DZ,1689905780
283,chokwe,-24.5333,32.9833,16.06,84,100,2.65,MZ,1689905780
284,novodvinsk,64.4165,40.8122,13.88,98,100,3.7,RU,1689905781
285,karratha,-20.7377,116.8463,22.85,35,1,9.62,AU,1689905781
286,laojunmiao,39.8333,97.7333,23.78,22,0,6.76,CN,1689905782
287,kayenta,36.7278,-110.2546,31.19,20,17,2.98,US,1689905660
288,huarmey,-10.0681,-78.1522,20.3,82,9,3.8,PE,1689905782
289,gitarama,-2.0744,29.7567,14.7,66,10,1.48,RW,1689905783
290,zheleznogorsk-ilimskiy,56.5768,104.1217,23.48,41,0,2.16,RU,1689905783
291,kutahya,39.4242,29.9833,19.44,52,2,1.28,TR,1689905784
292,kall,50.55,6.55,13.37,90,100,2.17,DE,1689905784
293,nemuro,43.3236,145.575,16.37,88,29,4.54,JP,1689905784
294,togur,58.3631,82.8265,19.5,84,45,3.73,RU,1689905785
295,troitsko-pechorsk,62.7084,56.1964,14.8,94,51,2.34,RU,1689905785
296,barasat,22.7167,88.5167,28.97,94,75,3.6,IN,1689905786
297,nguigmi,14.2495,13.1092,27.63,63,63,5.26,NE,1689905786
298,dire,12.2833,-10.9667,24.15,93,89,0.43,ML,1689905786
299,portland,45.5234,-122.6762,31.98,44,20,2.57,US,1689905417
300,tura,25.5198,90.2201,25.71,92,100,1.61,IN,1689905787
301,hasaki,35.7333,140.8333,30.73,77,28,4.67,JP,1689905788
302,ankazoabo,-22.2833,44.5167,15.86,85,35,3.92,MG,1689905788
303,kavaratti,10.5669,72.642,28.1,80,100,9.8,IN,1689905788
304,sitka,57.0531,-135.33,17.94,68,75,0.0,US,1689905789
305,sussex,41.1834,-74.6663,24.05,80,0,0.0,US,1689905729
306,el-tor,28.2364,33.6254,27.08,54,0,0.0,EG,1689905789
307,el eulma,36.1528,5.6902,26.34,26,45,2.02,DZ,1689905790
308,la ronge,55.1001,-105.2842,22.12,56,75,1.54,CA,1689905790
309,tyup,42.7276,78.3648,18.98,70,99,1.81,KG,1689905791
310,canto do buriti,-8.11,-42.9444,23.47,44,13,2.5,BR,1689905792
311,talcahuano,-36.7167,-73.1167,12.82,100,100,7.2,CL,1689905792
312,kongsvinger,60.1905,11.9977,11.37,91,70,1.54,NO,1689905793
313,vernon,50.2581,-119.2691,34.4,22,14,0.51,CA,1689905793
314,petropavlovsk-kamchatsky,53.0452,158.6483,13.33,100,100,0.0,RU,1689905794
315,port lincoln,-34.7333,135.8667,14.05,55,99,4.9,AU,1689905794
316,wewak,-3.5534,143.6268,29.23,68,75,2.11,PG,1689905794
317,dali,25.7,100.1833,20.57,83,97,0.73,CN,1689905795
318,shizunai-furukawacho,42.3339,142.3669,20.25,80,51,3.34,JP,1689905795
319,yaiza,28.9633,-13.7631,21.87,68,75,7.2,ES,1689905796
320,tralee,52.2704,-9.7026,12.77,86,100,2.89,IE,1689905796
321,cam ranh,11.9214,109.1591,30.98,70,20,5.14,VN,1689905796
322,lobito,-12.3481,13.5456,18.81,86,100,2.76,AO,1689905797
323,lorengau,-2.0226,147.2712,29.36,73,21,4.23,PG,1689905797
324,fort stockton,30.894,-102.8793,34.03,26,0,6.69,US,1689905798
325,tual,-5.6667,132.75,26.5,79,24,8.43,ID,1689905798
326,nizhnekamsk,55.6366,51.8245,15.36,82,0,5.0,RU,1689905574
327,lazaro cardenas,17.9583,-102.2,28.42,82,56,2.39,MX,1689905799
328,olonkinbyen,70.9221,-8.7187,5.13,83,100,0.59,SJ,1689905799
329,kingston,17.997,-76.7936,27.89,87,42,1.98,JM,1689905799
330,kabinda,-6.1333,24.4833,20.77,37,44,1.29,CD,1689905800
331,hithadhoo,-0.6,73.0833,28.42,73,74,7.35,MV,1689905800
332,brady,31.1352,-99.3351,35.25,20,0,2.57,US,1689905800
333,seeb,23.6703,58.1891,30.05,94,40,1.54,OM,1689905801
334,dudinka,69.4058,86.1778,18.68,90,100,4.75,RU,1689905801
335,saint-philippe,-21.3585,55.7679,20.77,76,0,0.43,RE,1689905802
336,vila velha,-20.3297,-40.2925,19.97,95,100,3.09,BR,1689905522
337,princeville,45.7668,-61.2985,20.73,95,0,1.03,CA,1689905802
338,derbent,42.0678,48.2899,23.84,65,0,2.91,RU,1689905803
339,talnakh,69.4865,88.3972,18.45,96,100,3.41,RU,1689905803
340,suntar,62.1444,117.6319,24.01,53,75,3.95,RU,1689905803
341,daru,-9.0763,143.2092,27.22,69,71,5.15,PG,1689905804
342,tvoroyri,61.5556,-6.8111,10.05,92,100,7.68,FO,1689905804
343,port-gentil,-0.7193,8.7815,22.42,87,38,5.02,GA,1689905659
344,rikaze,29.25,88.8833,17.28,38,0,1.05,CN,1689905805
345,campo formoso,-10.5075,-40.3214,16.71,85,12,4.04,BR,1689905805
346,dubinino,55.6192,89.0911,20.5,76,100,1.33,RU,1689905806
347,vershino-darasunskiy,52.35,115.5167,20.96,36,8,2.56,RU,1689905806
348,notse,6.95,1.1667,22.58,95,94,2.33,TG,1689905807
349,usogorsk,63.4106,48.6872,14.82,97,32,2.75,RU,1689905807
350,ancud,-41.8697,-73.8203,10.75,86,93,8.4,CL,1689905808
351,delvada,20.7667,71.0333,26.91,89,100,3.68,IN,1689905808
352,hengshui,37.7322,115.7011,27.39,77,100,2.18,CN,1689905808
353,brookhaven,31.5791,-90.4407,28.81,57,4,2.13,US,1689905640
354,callao,-12.0667,-77.15,21.51,73,75,6.69,PE,1689905809
355,kittila,67.6647,24.8936,10.08,100,100,2.57,FI,1689905810
356,de aar,-30.6497,24.0123,6.49,84,77,8.96,ZA,1689905810
357,kourou,5.1552,-52.6478,24.03,89,5,2.35,GF,1689905810
358,akureyri,65.6835,-18.0878,6.96,93,75,0.0,IS,1689905811
359,serro,-18.6047,-43.3794,15.6,97,98,2.63,BR,1689905811
360,nyurba,63.2842,118.3319,23.12,54,100,2.6,RU,1689905812
361,rovaniemi,66.5,25.7167,12.67,94,100,2.57,FI,1689905812
362,farsan,32.2569,50.561,16.02,35,6,1.49,IR,1689905812
363,bayanhongor,46.7167,100.1167,18.74,36,4,1.41,MN,1689905813
364,puerto baquerizo moreno,-0.9,-89.6,24.86,84,27,6.42,EC,1689905813
365,selfoss,63.9331,-20.9971,11.69,96,61,1.96,IS,1689905813
366,vaijapur,19.9167,74.7333,23.3,89,100,5.17,IN,1689905814
367,taro,-8.3862,115.28,24.0,67,38,2.4,ID,1689905814
368,bangar,16.8936,120.4243,30.84,68,34,1.62,PH,1689905243
369,sweetwater,25.7634,-80.3731,30.56,79,0,3.58,US,1689905815
370,iquique,-20.2208,-70.1431,18.02,84,47,1.82,CL,1689905815
371,sicuani,-14.2694,-71.2261,7.57,66,57,1.2,PE,1689905815
372,howard springs,-12.497,131.047,29.9,36,14,3.1,AU,1689905816
373,ternate,0.8,127.4,29.05,68,4,3.73,ID,1689905816
374,kilju,40.9642,129.3278,28.16,67,25,2.79,KP,1689905817
375,dongning,44.0622,131.1207,28.58,70,8,1.13,CN,1689905817
376,swakopmund,-22.6833,14.5333,12.29,80,0,1.44,NA,1689905818
377,kandi,11.1342,2.9386,25.39,79,93,2.52,BJ,1689905327
378,micheweni,-4.9667,39.8333,24.71,83,0,5.62,TZ,1689905818
379,bamboo flat,11.7,92.7167,28.05,89,100,3.6,IN,1689905819
380,aral,40.5156,81.2636,32.93,17,64,4.26,CN,1689905819
381,christchurch,-43.5333,172.6333,10.51,67,75,3.6,NZ,1689905573
382,chimbote,-9.0853,-78.5783,20.7,80,65,3.8,PE,1689905820
383,anna regina,7.2644,-58.5077,26.79,79,0,3.78,GY,1689905820
384,petrozavodsk,61.7849,34.3469,13.7,93,100,6.0,RU,1689905821
385,tosontsengel,48.7567,98.2839,18.37,52,100,1.38,MN,1689905822
386,pervomayskoye,43.919,46.7102,21.25,74,0,2.54,RU,1689905822
387,margate,51.3813,1.3862,15.39,87,86,3.7,GB,1689905822
388,rhinelander,45.6366,-89.4121,15.97,88,0,0.0,US,1689905747
389,gaogou,34.0175,119.1886,26.33,90,100,2.88,CN,1689905823
390,el granada,37.5027,-122.4694,27.82,80,0,8.23,US,1689905824
391,koprivnica,46.1628,16.8275,19.0,81,83,2.16,HR,1689905824
392,le vauclin,14.5452,-60.8388,28.03,78,40,2.06,MQ,1689905824
393,pionerskiy,54.9508,20.2275,13.91,82,85,7.9,RU,1689905825
394,akobo,7.4344,3.9497,22.39,97,100,1.48,NG,1689905825
395,yung shue wan,22.2333,114.1167,30.74,79,100,0.45,HK,1689905826
396,lafia,8.4833,8.5167,23.57,96,100,1.33,NG,1689905826
397,shingu,33.7333,135.9833,27.13,77,100,3.47,JP,1689905827
398,walvis bay,-22.9575,14.5053,11.27,82,0,1.34,NA,1689905794
399,as sulayyil,20.4607,45.5779,34.14,10,97,2.64,SA,1689905828
400,san julian,21.0167,-102.1667,22.51,35,99,5.11,MX,1689905828
401,ubinskoye,55.3068,79.6802,19.46,82,28,3.89,RU,1689905829
402,monte santo,-10.4378,-39.3328,16.81,93,12,2.68,BR,1689905829
403,akdepe,42.0551,59.3788,24.05,28,0,3.27,TM,1689905830
404,menongue,-14.6585,17.691,11.99,56,8,0.87,AO,1689905830
405,mejit,10.2753,170.8646,28.31,83,91,9.24,MH,1689905831
406,puerto san jose,13.9256,-90.8244,27.59,80,49,2.3,GT,1689905831
407,zakamensk,50.3741,103.2863,16.37,77,85,1.24,RU,1689905831
408,charters towers,-20.1,146.2667,23.94,41,34,1.73,AU,1689905832
409,penzance,50.1186,-5.5371,13.38,78,4,3.9,GB,1689905145
410,achit,56.7985,57.8994,14.1,80,15,3.5,RU,1689905833
411,khandyga,62.6667,135.6,15.76,95,100,6.07,RU,1689905833
412,placido de castro,-10.3353,-67.1856,23.86,58,0,1.03,BR,1689905833
413,conceicao do araguaia,-8.2578,-49.2647,22.48,34,5,2.05,BR,1689905834
414,bucyrus,40.8084,-82.9755,21.58,88,59,1.73,US,1689905834
415,vrangel',42.7297,133.0839,21.42,85,69,2.55,RU,1689905835
416,jiwani,25.05,61.7417,27.97,83,100,2.8,PK,1689905835
417,fada,9.5667,8.3,20.36,98,100,0.19,NG,1689905835
418,ar raqqah,35.95,39.0167,26.79,42,0,6.5,SY,1689905836
419,san pedro pochutla,15.7333,-96.4667,28.17,81,73,1.36,MX,1689905836
420,kone,-21.0595,164.8658,24.25,47,1,3.54,NC,1689905837
421,remire-montjoly,4.9167,-52.2667,24.02,94,0,1.03,GF,1689905537
422,imbituba,-28.24,-48.6703,18.25,94,100,5.74,BR,1689905726
423,norilsk,69.3535,88.2027,18.57,91,100,2.99,RU,1689905838
424,soio,-6.1349,12.3689,20.71,86,71,1.97,AO,1689905838
425,cassilandia,-19.1133,-51.7342,21.37,56,15,1.45,BR,1689905839
426,calchaqui,-29.8877,-60.287,16.24,75,99,3.96,AR,1689905839
427,caribou,46.8606,-68.012,21.24,78,0,0.0,US,1689905840
428,wynyard,-41.0,145.7167,11.3,59,27,3.85,AU,1689905840
429,natal,-5.795,-35.2094,23.12,88,40,4.12,BR,1689905643
430,ar ruways,24.1103,52.7306,31.79,67,100,3.39,AE,1689905841
431,nikolayevsk-on-amure,53.1406,140.73,29.66,51,5,1.67,RU,1689905841
432,ujae,8.9322,165.7642,28.98,79,47,8.77,MH,1689905842
433,miass,55.045,60.1083,15.22,70,100,1.79,RU,1689905842
434,pyapon,16.2833,95.6833,27.12,85,99,3.1,MM,1689905843
435,ocean city,39.2776,-74.5746,24.45,87,62,1.79,US,1689905843
436,beidaihehaibin,39.8222,119.5181,27.69,64,100,4.5,CN,1689905844
437,dakhla,23.6848,-15.958,20.2,92,36,11.32,EH,1689905844
438,sikasso,10.9167,-7.0,22.75,93,100,1.93,ML,1689905844
439,tobruk,32.0836,23.9764,25.68,82,0,3.42,LY,1689905845
440,san pedro,14.35,121.0167,30.75,75,75,3.09,PH,1689905845
441,china,25.7,-99.2333,31.77,40,14,11.56,MX,1689905248
442,cuencame de ceniceros,24.8711,-103.6964,29.7,20,14,3.64,MX,1689905846
443,whitefish,48.4111,-114.3376,32.16,22,0,2.06,US,1689905846
444,uturoa,-16.7333,-151.4333,24.52,65,15,9.54,PF,1689905847
445,camana,-16.6228,-72.7111,16.9,84,71,1.22,PE,1689905848
446,birni n konni,13.7956,5.2553,29.18,62,100,6.02,NE,1689905848
447,worland,44.0169,-107.9554,24.38,49,0,1.54,US,1689905848
448,nova sintra,14.8667,-24.7167,23.08,85,4,1.93,CV,1689905849
449,kerouane,9.2667,-9.0167,20.7,97,100,1.58,GN,1689905849
450,severo-yeniseyskiy,60.3725,93.0408,23.35,36,23,2.9,RU,1689905850
451,amursk,50.2261,136.8994,30.59,49,76,6.06,RU,1689905850
452,mahina,-17.5065,-149.489,25.87,53,20,8.75,PF,1689905850
453,ivdel',60.6911,60.4206,16.2,89,0,1.35,RU,1689905851
454,grand falls-windsor,48.9332,-55.6649,19.72,93,100,1.05,CA,1689905760
455,olyokminsk,60.3736,120.4264,22.64,58,92,2.93,RU,1689905852
456,belmonte,-15.8631,-38.8828,22.08,87,39,3.67,BR,1689905852
457,mount gambier,-37.8333,140.7667,12.06,68,100,3.0,AU,1689905852
458,macau,22.2006,113.5461,32.7,84,20,1.54,MO,1689905853
459,newport,51.5877,-2.9984,13.23,84,40,2.59,GB,1689905853
460,ha'il,27.5219,41.6907,31.01,15,0,4.12,SA,1689905853
461,yelovo,57.0538,54.9207,14.23,82,36,4.77,RU,1689905854
462,chernyshevskiy,63.0128,112.4714,20.88,59,100,2.74,RU,1689905854
463,codogno,45.1619,9.7022,23.29,94,14,1.95,IT,1689905855
464,malango,-2.9627,119.9001,25.1,73,52,1.43,ID,1689905855
465,nerja,36.7585,-3.8873,29.84,44,20,3.53,ES,1689905855
466,yinchuan,38.4681,106.2731,24.4,38,15,0.95,CN,1689905856
467,yarrawonga,-36.0167,146.0,10.84,66,0,5.6,AU,1689905856
468,campo mourao,-24.0456,-52.3831,15.79,88,1,4.06,BR,1689905857
469,kidal,18.4411,1.4078,30.62,49,94,8.5,ML,1689905857
470,velikiye luki,56.34,30.5452,11.5,73,81,1.99,RU,1689905857
471,mili,6.0815,171.735,28.34,82,92,9.25,MH,1689905858
472,grande prairie,55.1667,-118.8027,24.53,42,52,3.8,CA,1689905457
473,corinto,37.9407,22.9573,26.61,42,0,1.53,GR,1689905858
474,ghadamis,30.1337,9.5007,31.97,14,0,3.63,LY,1689905859
475,haiku-pauwela,20.9219,-156.3051,29.17,64,20,11.32,US,1689905859
476,novyy urgal,51.0736,132.5642,26.51,63,98,2.44,RU,1689905860
477,kapa'a,22.0752,-159.319,30.99,67,40,8.75,US,1689905860
478,inhambane,-23.865,35.3833,19.23,69,95,8.16,MZ,1689905860
479,flin flon,54.7682,-101.865,22.08,52,57,2.15,CA,1689905861
480,manta,-0.95,-80.7333,25.88,78,20,6.26,EC,1689905861
481,nezhinka,51.7676,55.3694,15.11,88,0,3.13,RU,1689905862
482,jackson,42.4165,-122.8345,34.93,24,0,3.6,US,1689905680
483,camocim,-2.9022,-40.8411,24.18,75,0,5.89,BR,1689905862
484,manicore,-5.8092,-61.3003,24.83,54,5,0.51,BR,1689905863
485,pisco,-13.7,-76.2167,19.03,77,0,3.09,PE,1689905863
486,benguela,-12.5763,13.4055,18.06,88,78,1.91,AO,1689905863
487,polyarnyy,69.1989,33.4478,8.55,85,100,6.77,RU,1689905864
488,alvorada,-12.48,-49.1247,23.18,35,0,3.19,BR,1689905865
489,juba,4.8517,31.5825,20.58,95,86,1.45,SS,1689905599
490,taishan,22.2514,112.7799,32.28,69,100,1.68,CN,1689905866
491,gurjaani,41.7429,45.8011,21.99,57,72,1.82,GE,1689905866
492,faya-largeau,17.9257,19.1043,29.79,48,80,8.28,TD,1689905866
493,port augusta,-32.5,137.7667,14.01,48,6,1.61,AU,1689905867
494,fenyi,27.8112,114.6681,31.95,69,100,1.84,CN,1689905867
495,nabire,-3.3667,135.4833,27.89,83,44,1.05,ID,1689905867
496,las tablas,7.7667,-80.2833,27.84,80,100,6.01,PA,1689905868
497,aripuana,-9.1667,-60.6333,23.43,49,6,0.76,BR,1689905868
498,ta`u,-14.2336,-169.5144,26.83,80,87,9.7,AS,1689905868
499,celestun,20.8667,-90.4,26.85,85,46,5.93,MX,1689905869
500,belyy yar,53.6039,91.3903,19.94,88,40,4.0,RU,1689905869
501,meadow lake,34.8014,-106.5436,33.71,22,94,8.68,US,1689905869
502,sabang,5.8933,95.3214,28.6,72,100,8.62,ID,1689905870
503,marco island,25.9363,-81.7157,31.0,89,20,3.17,US,1689905870
504,nova xavantina,-14.6667,-52.35,21.43,38,7,1.56,BR,1689905871
505,vilyuysk,63.7553,121.6247,22.56,46,60,3.26,RU,1689905871
506,hua hin,12.5707,99.9588,27.01,78,40,2.06,TH,1689905871
507,teshi old town,5.5836,-0.1072,24.82,86,52,4.55,GH,1689905872
508,lagoa,39.05,-27.9833,20.57,88,100,3.27,PT,1689905872
509,el calafate,-50.3408,-72.2768,0.94,96,100,2.4,AR,1689905872
510,butajira,8.1167,38.3667,15.31,90,100,1.28,ET,1689905873
511,katsuura,35.1333,140.3,26.35,74,35,5.7,JP,1689905873
512,pasuquin,18.3328,120.6177,30.97,74,20,2.57,PH,1689905873
513,minas de marcona,-15.2119,-75.1103,13.26,83,52,4.65,PE,1689905874
514,shevchenko,48.5,35.0,17.49,97,98,2.11,UA,1689905874
515,nar'yan-mar,67.6713,53.087,12.52,92,100,5.44,RU,1689905874
516,undurkhaan,47.3194,110.6556,20.15,54,100,7.57,MN,1689905875
517,coquimbo,-29.9533,-71.3436,13.85,88,100,1.54,CL,1689905875
518,ilebo,-4.3167,20.5833,23.33,47,30,0.98,CD,1689905876
519,languyan,5.2618,120.0807,28.47,81,100,2.47,PH,1689905876
520,katsuren-haebaru,26.3369,127.8719,32.43,64,40,3.6,JP,1689905876
521,fonte boa,-2.4959,-66.2662,24.83,83,55,0.73,BR,1689905877
522,ostersund,63.1792,14.6357,10.34,37,100,6.69,SE,1689905877
523,arteche,12.2645,125.4048,30.51,65,88,0.64,PH,1689905877
524,lagos,6.5833,3.75,24.23,93,97,2.31,NG,1689905215
525,beni,0.5,29.4667,16.09,95,99,0.98,CD,1689905878
526,prince rupert,54.3161,-130.3201,16.83,90,0,1.54,CA,1689905712
527,maardu,59.4767,25.025,11.45,94,20,3.09,EE,1689905776
528,mikhaylovsk,45.1283,42.0256,17.12,63,0,3.13,RU,1689905879
529,boguchany,58.3814,97.4531,25.47,35,1,2.13,RU,1689905879
530,cascais,38.6979,-9.4215,20.63,82,1,4.47,PT,1689905880
531,tyukhtet,56.5389,89.3011,20.55,71,100,2.41,RU,1689905880
532,nago,26.5881,127.9761,32.47,66,94,1.94,JP,1689905881
533,gizo,-8.103,156.8419,27.48,83,90,8.14,SB,1689905881
534,aswan,24.0934,32.907,32.61,17,0,2.57,EG,1689905881
535,morondava,-20.2833,44.2833,21.15,59,0,4.74,MG,1689905882
536,la passe,45.5549,-0.8967,17.77,81,0,4.25,FR,1689905882
537,pandan,14.0453,124.1694,30.1,69,46,1.08,PH,1689905883
538,ust-tsilma,65.441,52.1498,17.71,93,59,1.9,RU,1689905883
539,perryville,37.7242,-89.8612,28.44,94,0,1.54,US,1689905884
540,luderitz,-26.6481,15.1594,14.23,48,0,1.32,NA,1689905884
541,colonia,50.9333,6.95,16.65,85,0,1.54,DE,1689905604
542,santa ana,33.7456,-117.8678,36.89,50,0,2.06,US,1689905620
543,vega de alatorre,20.0333,-96.6333,27.73,80,22,2.86,MX,1689905885
544,martuk,50.7475,56.5056,18.57,58,56,3.35,KZ,1689905886
545,urangan,-25.3,152.9,19.31,63,0,4.0,AU,1689905886
546,daura,11.5538,11.4085,23.78,78,89,3.22,NG,1689905886
547,yallahs,17.8748,-76.5624,28.21,89,39,5.47,JM,1689905887
548,pacific grove,36.6177,-121.9166,24.8,87,75,4.12,US,1689905887
549,karatuzskoye,53.6072,92.8667,21.56,70,100,2.29,RU,1689905888
550,ferkessedougou,9.6,-5.2,24.34,82,62,3.04,CI,1689905888
551,chaah,2.249,103.048,27.45,86,98,1.5,MY,1689905888
552,itamaraju,-17.0392,-39.5311,20.35,94,100,3.68,BR,1689905709
553,kabalo,-6.05,26.9167,23.95,40,17,0.87,CD,1689905774
554,port douglas,-16.4833,145.4667,24.08,67,75,3.4,AU,1689905890
555,tolanaro,-25.0319,46.9987,19.23,87,74,4.16,MG,1689905890
556,fort st. john,56.2499,-120.8529,26.94,32,75,3.09,CA,1689905891
557,laborde,-33.1532,-62.8566,11.57,58,80,7.25,AR,1689905891
558,altpinar,39.2042,32.7478,20.7,44,0,2.58,TR,1689905891
559,lamu,-2.2717,40.902,26.12,85,9,7.41,KE,1689905892
560,surin,14.8818,103.4936,27.73,99,89,2.53,TH,1689905893
561,guerrero negro,27.9769,-114.0611,20.44,81,21,9.22,MX,1689905893
562,bel ombre,-4.6167,55.4167,25.91,83,40,6.17,SC,1689905894
563,atasu,48.6814,71.6433,25.68,30,96,2.08,KZ,1689905894
564,cadale,2.7603,46.3222,25.2,88,97,9.46,SO,1689905895
565,puerto deseado,-47.7503,-65.8938,9.85,67,100,11.82,AR,1689905895
566,oban,56.4127,-5.4706,8.54,90,16,1.66,GB,1689905896
567,posto fiscal rolim de moura,-13.0833,-62.2667,22.84,55,0,0.09,BR,1689905896
568,kilkeel,54.062,-6.0031,10.93,89,99,3.94,GB,1689905897
569,sokoni,-6.4333,39.55,25.49,80,0,7.28,TZ,1689905897
570,anloga,5.7947,0.8973,25.33,88,69,5.92,GH,1689905898
571,paracuru,-3.41,-39.0306,25.06,74,0,7.88,BR,1689905898
572,klaksvik,62.2266,-6.589,9.51,97,100,7.4,FO,1689905899
573,taguatinga,-12.3857,-46.5711,21.95,42,0,3.83,BR,1689905899
574,enewetak,11.3474,162.3373,28.16,82,94,7.73,MH,1689905900
575,birao,10.2849,22.7882,22.15,95,89,1.53,CF,1689905900
576,north elba,44.2434,-73.9543,16.86,87,3,2.0,US,1689905900
577,homer,59.6425,-151.5483,16.54,79,40,6.69,US,1689905721
578,tromso,69.6496,18.957,10.01,87,100,2.06,NO,1689905901
579,mournies,35.4764,24.0092,28.79,61,0,0.0,GR,1689905901
580,whitecourt,54.1502,-115.6855,25.58,50,75,0.0,CA,1689905709
581,mancio lima,-7.6142,-72.8958,25.09,68,67,0.79,BR,1689905902
582,wladyslawowo,54.7909,18.4009,13.08,88,10,6.09,PL,1689905902
583,ingleside,27.8778,-97.2117,29.46,85,0,4.12,US,1689905903
584,paka,4.6374,103.4368,27.96,78,20,1.54,MY,1689905903
585,welkom,-27.9864,26.7066,6.31,72,88,7.57,ZA,1689905904
586,taroa,8.7058,171.2275,28.42,83,72,9.14,MH,1689905905
